"","Name","Lon","Lat"
"1","AbaBikila","38.09279","12.28212"
"2","Abara","38.45123","10.47808"
"3","Abarwuha","38.15232","11.02268"
"4","Abaselima","38.45637","10.36874"
"5","Abina","38.21639","12.28058"
"6","AbrahaAtsbaha","39.511604","13.837765"
"7","Abrekuy","38.35797","10.26471"
"8","AdekeAla","39.236951","13.348441"
"9","Adekiney","39.30789","14.27692"
"10","AderSeg","38.14919","12.29665"
"11","Adibearj","38.54545","14.17552"
"12","AdiHa","39.087","13.733"
"13","AdiKisandid","39.61081667","13.82423333"
"14","Adisalem","38.4665","10.78602"
"15","AdisAlemS","39.229","13.308802"
"16","AdisAlemW","39.2","14.1"
"17","Adiselam","38.625008","13.892691"
"18","Adishimbirkti","39.42271482","12.56255587"
"19","AdisKigni","39.67775","12.42191667"
"20","Adiyikoro","39.07198333","14.19138333"
"21","Adizata","39.08181667","14.2262"
"22","Adreb","38.670127","13.996596"
"23","AgazenMeda","38.18116","11.10331"
"24","Agazi","39.53878333","14.11513333"
"25","Agbe","39.05526667","13.54325"
"26","Agela","37.77793","12.08913"
"27","Agid","37.63774","12.12436"
"28","AlemeTesfa","38.43718","10.95347"
"29","AmdiWeyane","39.2","13.3"
"30","Amedwuha","39.33957","12.89367"
"31","Ameno","37.92786","12.21214"
"32","Amisetya","38.32135","12.33541"
"33","Angot","38.20642","11.01804"
"34","Anigot","37.77565","12.05515"
"35","Ansheb","38.43482","10.52233"
"36","AquaShumoch","38.05479","12.02169"
"37","Aquha","38.34943","12.39482"
"38","Arena","39.15328","13.96094"
"39","Asmena","39.61543333","14.2107"
"40","Asta","37.79168","12.22985"
"41","Atakilti","38.9","13.7"
"42","AwetBikalsi","39.136","13.744"
"43","AwusaMeda","38.39108","10.99846"
"44","Ayba","39.53561","12.89097"
"45","Aynalem","39.54968333","13.75331667"
"46","Bala","39.742","12.43026667"
"47","Balarab","38.26007","12.31803"
"48","Bamba","39.06563","13.40461"
"49","BarkaAdiswha","39.70919","13.79387"
"50","Begasheka","38.92838333","13.62643333"
"51","Berlay","38.35053","10.93635"
"52","Betgebez","39.10301667","14.36085"
"53","Bethans","38.8504","14.1509"
"54","BilbWuha","37.75818","12.32109"
"55","Birkutea","37.93442","12.10269"
"56","Boneya","38.4524","10.43066"
"57","Burkoche","38.35279","12.41277"
"58","Cheli","39.1160726","13.3301609"
"59","Darubekeda","39.272485","12.57984333"
"60","Deberkerbye","38.44383","13.93067"
"61","DeberAbaJale","38.02621","12.12973"
"62","DebrAbay","38.36968","10.81197"
"63","DebreAliays","38.4553","10.91651"
"64","Debrebirhan","39.46886","13.92454"
"65","Debrebrhan","39.4907","13.69226667"
"66","DebreGenet","38.31261","10.91103"
"67","DebreGenetA","38.963","14.107"
"68","DebreGenetK","39","13.6"
"69","DebreGeorgis","38.44727","10.99684"
"70","DebreKidusan","38.2624","10.80685"
"71","Debremawie","38.37385","10.87255"
"72","Debreselam","39.33234","13.95408"
"73","Debrinetseb","38.78695","13.71583"
"74","Dekera","39.11287167","13.210427"
"75","DembezaAmbaLay","38.37871","10.91141"
"76","Derit","38.1371","11.09242"
"77","Derita","37.81345","12.19167"
"78","Dinkashena","39.221175","12.640235"
"79","Ebo","39.67121667","12.86883333"
"80","Edagaarbi","39.25228","14.20521"
"81","EmbaAhfrom","39.21587","14.24734"
"82","EmbachekoGunaguna","38.12471","12.04585"
"83","EndaBagerima","38.961","14.158"
"84","Endabano","38.98961667","13.7764"
"85","Endachiwa","39.02396667","14.06666667"
"86","EndaFelasi","38.985","13.91042"
"87","Endagahamus","39.1","14"
"88","Endamariam","39.16273","14.26368"
"89","Erba","39.76887167","12.54425167"
"90","Esiret","39.0774667","13.34305"
"91","Estifanos","37.8684","12.07803"
"92","Fala","39.39463833","12.49288167"
"93","Felegehiwot","38.28638","10.92708"
"94","FelegeWayane","39.7409","13.9071"
"95","FikreAlem","39.50667","13.20583"
"96","Filatako","38.10078","11.08554"
"97","Gebsit","38.35219","10.4903"
"98","Gedayasu","38.38796","10.50118"
"99","GelaMatebiya","38.1349","12.20091"
"100","Gendebta","39.015","14.23"
"101","Geneti","39.65126667","12.79798333"
"102","Genfel","39.58768333","13.78058333"
"103","Gera","38.96085","13.43246667"
"104","Gerjale","39.651575","12.527198"
"105","GetskiMilesiley","39.0193","13.69018333"
"106","Gijet","39.1736503","13.677862"
"107","Ginaza","37.73503","12.10899"
"108","Golgolemalee","39.72736","13.87282"
"109","Goshedur","38.25709","10.92944"
"110","Goza","37.78897","12.2906"
"111","Grwre","38.92595","13.35283"
"112","GuemseAgamet","39.59356667","14.01175"
"113","Guroro","38.81022","13.69381"
"114","Guya","38.82239","13.6175"
"115","Habees","39.68752","13.81053"
"116","Hadashtekli","39.004094","13.505381"
"117","HadeAlga","39.8","12.7"
"118","HadnetK","39.56335","13.66293333"
"119","HadnetS","39.53878333","14.11513333"
"120","HadushAdi","39.583","14.127"
"121","HadushHiwet","39.56779","14.202609"
"122","HagereGenet","38.32013","10.77531"
"123","HagereSelamE","38.38316","10.7633"
"124","HagereSelamW","39.47039","13.31372"
"125","Hangoda","39.53878333","14.11513333"
"126","Hareko","39.3571371","13.183572"
"127","Hawelti","39.716","12.8383"
"128","Hayelom","39.46253333","13.75925"
"129","Hintsa","39.161829","13.295328"
"130","HintsaWaza","39.177571","13.28738"
"131","HizbaTeklehymanot","39.549625","12.80528167"
"132","ImbaRufael","39","13.4"
"133","Jijqe","38.85783","13.50556"
"134","JimanDeregeha","38.07679","12.12512"
"135","Jira","38.37836","13.46378"
"136","kabe","37.63329","12.04253"
"137","Karima","38.34343","10.51832"
"138","Keregna","37.63355","12.0875"
"139","Kihen","39.564816","13.6227"
"140","Kita","38.36343","12.23886"
"141","Korme","39.73416667","12.5342"
"142","Ksadacki","38.702031","13.863646"
"143","Kudo","39.23335","14.18524"
"144","Kuluferha","38.41515","14.18028"
"145","KuluGizeLemlem","39.65574","12.447477"
"146","LaelayDayu","39.650299","12.466214"
"147","Laelayhahaile","39.17888","14.17428"
"148","LaelayMegariaTsemri","39.08091","14.27076667"
"149","Lalaylogomti","39.010145","14.12735"
"150","Ledy","38.36659","10.3078"
"151","Lemlem","39.04156667","13.24661667"
"152","LemlemArena","39.28141726","13.1531016"
"153","Libo ","37.88088","12.18526"
"154","Limaat","39.657985","12.398839"
"155","Limat","38.969821","13.573974"
"156","Lul","38.40667","10.70791"
"157","LusinaAbegeldi","38.17096","12.18188"
"158","Maekelawi","39.1","14"
"159","MaekelSegli","38.9","13.9"
"160","MahbereWeyni","39.55716667","13.69048333"
"161","MariamShewito","38.95662","14.21718"
"162","Martadios","37.87177","12.24637"
"163","MayChekemte","39.11258","14.079"
"164","MayNebri","39.27922","14.08517"
"165","Maysuru","39.17853333","14.2793"
"166","MayTeklia","39.242201","13.254226"
"167","Mearey","38.99416667","13.19138333"
"168","Mechare","39.811","12.76645"
"169","Mechena","38.04879","12.06952"
"170","MehalGoncha","38.20915","11.05474"
"171","Mekan ","39.52550166","12.74920333"
"172","MekaneGenet","38.33391","11.00523"
"173","Melabesh","38.4583","10.83523"
"174","MendereMariam","37.68869","12.30258"
"175","Menegobena","38.30311","10.38347"
"176","Menji","38.89091667","13.69308333"
"177","Mergech","38.31965","10.33402"
"178","Mesanu","39.66021667","13.7033"
"179","Mesehle","38.42014","14.12451"
"180","Meswaeti ","39.54465833","12.69882"
"181","Metkel","39.33889","13.36833"
"182","MetkelLemat","39.187599","13.237814"
"183","Mezbr","39.03853","14.34498"
"184","MichelDebre","37.71948","12.27402"
"185","Miraf","38.35145","10.3807"
"186","Misema","37.27195","14.1325"
"187","Mitad","37.73617","12.24157"
"188","MitinaYimach","38.3508","11.03647"
"189","Mozen","38.30749","10.37133"
"190","Mozutey","39.46714","14.04165"
"191","Mtsaiwerki","38.78111","13.62158"
"192","Nagash","39.59755","13.87613333"
"193","Nebarhadinet","39.0417","13.1668"
"194","Nefasit","38.38987","14.24565"
"195","Negedebrhan","38.93058","13.3322"
"196","Niquara","38.2555","12.2137"
"197","Qoraro","39.25988","13.86542"
"198","RubaFelege","39.72898","13.94422"
"199","Santa gelebeda","39.1722","13.82936"
"200","SaratYerawoch","38.34412","11.06702"
"201","Sefo","39.19678","14.21603"
"202","Segena","38.29259","11.10519"
"203","Seka","38.677553","13.901873"
"204","Selamaya","38.17502","12.12543"
"205","SelamBekalsi","39.659153","12.414739"
"206","Selamber","38.48934","10.881"
"207","SelamgieAmbarie","38.24068","11.10148"
"208","SelamH","39.44903","13.9531"
"209","SelamW","39","14"
"210","Selelkula","38.35776","10.36856"
"211","SelenWuha","39.657374","12.358934"
"212","Seloda","38.8843","14.204"
"213","Sendada","39.59608333","13.96051667"
"214","Serawudi","37.97077","12.13049"
"215","Seret","39.3872","13.04526"
"216","Sero","39.22411667","14.32078333"
"217","Shamo","37.90094","12.08534"
"218","ShehochTehara","37.83756","12.12814"
"219","Shekatekli","39.03888333","13.53678333"
"220","Shunge","38.1771","12.08237"
"221","Simret","39.28237","14.28043"
"222","SimretS","39.50650833","12.72587333"
"223","SimretT","38.79772","13.49733"
"224","Sinkata","39.59356667","14.01175"
"225","Siye","38.83012","13.42072"
"226","Smret","38.85106","13.6408"
"227","Sorya","39.32907","12.34583"
"228","Suha","38.26694","10.34635"
"229","Tahtayhaya","39.56391667","12.70454167"
"230","TahtayDaeroka","39.11961667","14.21841667"
"231","TahtayLegomti","38.9704","14.0784"
"232","TahtayMegariaTsebri","39.07828333","14.30111667"
"233","Tao","39.64047","12.5179"
"234","TaraGedam","37.73193","12.1516"
"235","TaraSenba","38.00931","12.22824"
"236","Tekea","39.47559","12.9176"
"237","Tekleweyni","38.84672","13.37087"
"238","Tetatiro","38.39577","10.20659"
"239","Tibaga","37.67116","12.05085"
"240","Tigage","38.41673","12.34042"
"241","Tsae","39.12939","13.90719"
"242","Tsetsera","39.4313","12.37728"
"243","Tseykeme","38.90783","13.45089"
"244","Tsigea","39.65126667","12.79798333"
"245","Ulaga","39.80076667","12.44273333"
"246","Wargba","39.68234333","12.75934167"
"247","Wariba","38.10837","11.98646"
"248","Wedikeshi","38.878","14.2475"
"249","Werabaye","39.62322833","12.67054333"
"250","Werkamba","38.98961667","13.7764"
"251","Wobo","38.39478","10.22238"
"252","Wonberoch","38.01144","12.17849"
"253","Wondye","38.27698","11.05132"
"254","Worego","38.36928","10.41089"
"255","WorgajaWagi","38.01687","12.28664"
"256","WoryaMeskel","38.46225","10.74562"
"257","Woyenti","39.038132","14.205338"
"258","Woynye","38.40502","10.42627"
"259","WuhdetG","39.2653","14.31872"
"260","WuhdetK","39.10903","13.8285"
"261","WushaTires","37.67963","12.10734"
"262","Yedwuha","38.331","10.45178"
"263","Yeju","38.30642","10.19588"
"264","Yetefet","38.3235","10.97067"
"265","YifagAkababi","37.71093","12.06969"
"266","Yitihana","38.42984","10.33567"
"267","Zata","39.29298833","12.50773"
"268","Ziha","37.98849","12.07409"
"269","ZihonHuha","38.41444","10.8758"
"270","ZobarYikuanda","38.4701","10.68773"
"271","Zongi","39","14"
